{
"type": "FeatureCollection",
"name": "Burned",
"crs": { "type": "name", "properties": { "name": "urn:ogc:def:crs:OGC:1.3:CRS84" } },
"features": [
{ "type": "Feature", "properties": { "FID_": 0, "Id": 12, "Nom": "Dakhla-Oued Ed Daha", "Lon": -14.35745899, "Lat": 22.87426382, "2009": 0.0, "2010": 0.0, "2011": 0.0, "2012": 0.0, "2013": 0.0, "2014": 0.0, "2015": 0.0, "2016": 0.0, "2017": 0.0, "2018": 0.0, "2019": 0.0, "2020": 0.0 }, "geometry": { "type": "Point", "coordinates": [ -14.35745899, 22.87426382 ] } },
{ "type": "Feature", "properties": { "FID_": 1, "Id": 11, "Nom": "Laâyoune-Sakia El Hamra​​", "Lon": -11.98007363, "Lat": 26.31166373, "2009": 0.0, "2010": 0.0, "2011": 0.0, "2012": 0.0, "2013": 0.0, "2014": 0.0, "2015": 0.0, "2016": 0.0, "2017": 0.0, "2018": 0.0, "2019": 0.0, "2020": 0.0 }, "geometry": { "type": "Point", "coordinates": [ -11.98007363, 26.31166373 ] } },
{ "type": "Feature", "properties": { "FID_": 2, "Id": 10, "Nom": "Guelmim Oued Noun​​", "Lon": -9.927172874, "Lat": 28.31018651, "2009": 0.0, "2010": 0.0, "2011": 0.0, "2012": 0.0, "2013": 0.0, "2014": 0.0, "2015": 0.0, "2016": 0.0, "2017": 0.0, "2018": 0.0, "2019": 0.0, "2020": 82.0 }, "geometry": { "type": "Point", "coordinates": [ -9.927172874, 28.31018651 ] } },
{ "type": "Feature", "properties": { "FID_": 3, "Id": 9, "Nom": "Souss-Massa", "Lon": -8.354625122, "Lat": 29.9153702, "2009": 7.0, "2010": 2136.0, "2011": 522.0, "2012": 633.0, "2013": 2004.0, "2014": 5.0, "2015": 7.8, "2016": 0.0, "2017": 0.0, "2018": 0.0, "2019": 0.0, "2020": 25.0 }, "geometry": { "type": "Point", "coordinates": [ -8.354625122, 29.9153702 ] } },
{ "type": "Feature", "properties": { "FID_": 4, "Id": 8, "Nom": "Darâa-Tafilalet", "Lon": -5.36896652, "Lat": 31.19112059, "2009": 0.0, "2010": 0.0, "2011": 0.0, "2012": 0.0, "2013": 0.0, "2014": 0.0, "2015": 0.0, "2016": 0.0, "2017": 0.0, "2018": 0.0, "2019": 0.0, "2020": 45.0 }, "geometry": { "type": "Point", "coordinates": [ -5.36896652, 31.19112059 ] } },
{ "type": "Feature", "properties": { "FID_": 5, "Id": 2, "Nom": "Oriental​​", "Lon": -2.655703455, "Lat": 33.49555643, "2009": 866.0, "2010": 233.0, "2011": 1381.0, "2012": 3663.0, "2013": 267.0, "2014": 214.0, "2015": 33.0, "2016": 1266.0, "2017": 1815.0, "2018": 0.0, "2019": 1525.0, "2020": 625.0 }, "geometry": { "type": "Point", "coordinates": [ -2.655703455, 33.49555643 ] } },
{ "type": "Feature", "properties": { "FID_": 6, "Id": 1, "Nom": "Tanger Tetouan Al Hoceima", "Lon": -5.169087576, "Lat": 35.14586645, "2009": 743.0, "2010": 0.0, "2011": 2110.0, "2012": 7510.0, "2013": 241.0, "2014": 635.0, "2015": 339.0, "2016": 2393.0, "2017": 1775.0, "2018": 510.0, "2019": 1832.0, "2020": 6560.0 }, "geometry": { "type": "Point", "coordinates": [ -5.169087576, 35.14586645 ] } },
{ "type": "Feature", "properties": { "FID_": 7, "Id": 3, "Nom": "Fès meknes​​", "Lon": -4.49417143, "Lat": 33.75172295, "2009": 502.0, "2010": 573.0, "2011": 655.0, "2012": 10.21, "2013": 74.0, "2014": 54.0, "2015": 46.0, "2016": 97.0, "2017": 577.0, "2018": 0.0, "2019": 953.0, "2020": 221.0 }, "geometry": { "type": "Point", "coordinates": [ -4.49417143, 33.75172295 ] } },
{ "type": "Feature", "properties": { "FID_": 8, "Id": 4, "Nom": "Rabat Salé Kenitra", "Lon": -6.217029967, "Lat": 34.07152153, "2009": 0.0, "2010": 0.0, "2011": 0.0, "2012": 0.0, "2013": 294.0, "2014": 0.0, "2015": 42.0, "2016": 108.0, "2017": 0.0, "2018": 583.0, "2019": 461.0, "2020": 5.0 }, "geometry": { "type": "Point", "coordinates": [ -6.217029967, 34.07152153 ] } },
{ "type": "Feature", "properties": { "FID_": 9, "Id": 5, "Nom": "Beni Mellal-Khénifra", "Lon": -6.305261838, "Lat": 32.46789263, "2009": 0.0, "2010": 0.0, "2011": 0.0, "2012": 0.0, "2013": 0.0, "2014": 0.0, "2015": 0.0, "2016": 0.0, "2017": 287.0, "2018": 0.0, "2019": 40.0, "2020": 118.57 }, "geometry": { "type": "Point", "coordinates": [ -6.305261838, 32.46789263 ] } },
{ "type": "Feature", "properties": { "FID_": 10, "Id": 6, "Nom": "Casablanca-Settat", "Lon": -7.786903979, "Lat": 33.00378916, "2009": 0.0, "2010": 0.0, "2011": 0.0, "2012": 0.0, "2013": 0.0, "2014": 0.0, "2015": 0.0, "2016": 0.0, "2017": 191.0, "2018": 40.0, "2019": 0.0, "2020": 0.0 }, "geometry": { "type": "Point", "coordinates": [ -7.786903979, 33.00378916 ] } },
{ "type": "Feature", "properties": { "FID_": 11, "Id": 7, "Nom": "Marrakech Safi​​", "Lon": -8.458592198, "Lat": 31.70031647, "2009": 0.0, "2010": 118.0, "2011": 0.0, "2012": 0.0, "2013": 0.0, "2014": 96.0, "2015": 138.0, "2016": 0.0, "2017": 0.0, "2018": 0.0, "2019": 0.0, "2020": 164.0 }, "geometry": { "type": "Point", "coordinates": [ -8.458592198, 31.70031647 ] } }
]
}
